[
  {
    "id": 265,
    "name": "Main Street",
    "short_name": "MS",
    "school_id": 1,
    "school_campus_id": 0,
    "latitude": 33.5378,
    "longitude": -92.467,
    "location_type": 2,
    "img_data": "",
    "num_sub_pois": 0,
    "address": "123 Main, Hampton, AR 71744, USA",
    "city": "Hampton",
    "state": "Arkansas",
    "postal_code": 71744,
    "added_date": "2017-01-17 13:14:28",
    "added_store_id": 1,
    "is_active": 1,
    "date_last_modified": "2017-01-17 13:14:32",
    "extra_info": ""
  },
  {
    "id": 264,
    "name": "Arnold and Blema Steinberg Medical Simulation Centre",
    "short_name": "SIM",
    "school_id": 2,
    "school_campus_id": 0,
    "latitude": 45.5104,
    "longitude": -73.5751,
    "location_type": 0,
    "img_data": 0,
    "num_sub_pois": 0,
    "address": "3575 Ave du Parc in La Cit� Complex",
    "city": "",
    "state": "",
    "postal_code": "",
    "added_date": "2015-04-09 16:14:25",
    "added_store_id": 0,
    "is_active": 1,
    "date_last_modified": "2015-04-09 16:14:25",
    "extra_info": ""
  },
  {
    "id": 263,
    "name": "Royal Victoria Hospital",
    "short_name": "",
    "school_id": 2,
    "school_campus_id": 0,
    "latitude": 45.5085,
    "longitude": -73.5816,
    "location_type": 0,
    "img_data": 0,
    "num_sub_pois": 0,
    "address": "687 Pine Avenue West",
    "city": "Montreal",
    "state": "Quebec",
    "postal_code": "H3A 2B4",
    "added_date": "2014-11-28 17:57:01",
    "added_store_id": 0,
    "is_active": 1,
    "date_last_modified": "2014-11-28 17:57:01",
    "extra_info": ""
  },
  {
    "id": 262,
    "name": "Montreal General Hospital",
    "short_name": "",
    "school_id": 2,
    "school_campus_id": 0,
    "latitude": 45.4971,
    "longitude": -73.5893,
    "location_type": 0,
    "img_data": 0,
    "num_sub_pois": 0,
    "address": "1650 Avenue Cedar Montr�al, Qu�bec, Canada",
    "city": "Montreal",
    "state": "Quebec",
    "postal_code": "H3G 1A4",
    "added_date": "2014-11-28 17:53:31",
    "added_store_id": 0,
    "is_active": 1,
    "date_last_modified": "2014-11-28 17:53:31",
    "extra_info": ""
  }
]